City_ID,City,Country,Lat,Lng,Max Temp,Humidity,Cloudiness,Wind Speed,Weather Desc
0,Port Elizabeth,ZA,-33.918,25.5701,62.89,77,0,3.44,clear sky
1,Tubmanburg,LR,6.8708,-10.8172,73.11,91,100,1.52,overcast clouds
2,Kodiak,US,57.79,-152.4072,44.11,76,75,12.66,broken clouds
3,Hobart,AU,-42.8794,147.3294,59.25,57,20,8.05,few clouds
4,Itarema,BR,-2.9248,-39.9167,80.08,77,3,15.19,clear sky
5,Bluff,NZ,-46.6,168.3333,58.8,85,100,18.37,overcast clouds
6,Hutchinson,US,38.0608,-97.9298,69.75,17,0,0.0,clear sky
7,Hilo,US,19.7297,-155.09,80.33,79,40,8.05,scattered clouds
8,Port-Cartier,CA,50.0334,-66.8654,7.02,83,29,7.36,scattered clouds
9,Pemangkat,ID,1.1667,108.9667,74.7,91,94,6.31,overcast clouds
10,Novopokrovka,UA,49.8425,36.5477,41.38,80,100,13.62,overcast clouds
11,Cabo San Lucas,MX,22.8909,-109.9124,83.61,66,20,11.5,few clouds
12,Teacapan,MX,22.55,-105.75,77.92,45,24,12.48,few clouds
13,Tazovskiy,RU,67.4667,78.7,14.04,94,100,12.35,overcast clouds
14,San Cristobal,VE,7.7669,-72.225,71.78,78,89,3.24,overcast clouds
15,Port Alfred,ZA,-33.5906,26.891,66.6,82,19,7.9,few clouds
16,Matamoros,MX,25.5333,-103.25,89.71,13,75,17.27,broken clouds
17,Salinas,US,36.6777,-121.6555,60.3,54,0,18.41,clear sky
18,Barrow,US,71.2906,-156.7887,-0.38,71,100,20.71,haze
19,Ribeira Grande,PT,38.5167,-28.7,57.22,67,73,1.52,broken clouds
20,Cidreira,BR,-30.1811,-50.2056,76.26,76,60,15.03,broken clouds
21,Pisco,PE,-13.7,-76.2167,72.01,83,40,9.22,mist
22,Atuona,PF,-9.8,-139.0333,78.49,72,19,17.9,few clouds
23,Surgut,RU,61.25,73.4167,21.38,92,75,8.99,light shower snow
24,Arraial Do Cabo,BR,-22.9661,-42.0278,76.96,100,75,10.36,moderate rain
25,Constitucion,CL,-35.3333,-72.4167,61.03,84,54,6.24,broken clouds
26,Hengyang,CN,26.8881,112.615,35.92,98,100,5.19,overcast clouds
27,Pula,HR,44.8683,13.8481,47.26,75,0,16.11,clear sky
28,Sao Filipe,CV,14.8961,-24.4956,70.63,71,70,12.01,broken clouds
29,Havoysund,NO,70.9963,24.6622,16.68,82,99,3.44,overcast clouds
30,Genhe,CN,50.7833,121.5167,-24.56,100,95,0.69,overcast clouds
31,Jamestown,US,42.097,-79.2353,60.12,37,0,8.05,clear sky
32,Namatanai,PG,-3.6667,152.4333,82.51,74,99,5.46,light rain
33,Rikitea,PF,-23.1203,-134.9692,77.38,70,21,5.95,few clouds
34,Evensk,RU,61.95,159.2333,-15.77,80,3,7.58,clear sky
35,Cape Town,ZA,-33.9258,18.4232,66.27,75,0,8.05,clear sky
36,Cody,US,44.5263,-109.0565,1.69,66,100,21.85,overcast clouds
37,Nampa,US,43.5407,-116.5635,41.65,61,0,6.91,clear sky
38,Tuktoyaktuk,CA,69.4541,-133.0374,-13.0,70,20,16.11,few clouds
39,Hermanus,ZA,-34.4187,19.2345,64.8,81,92,1.7,overcast clouds
40,Ushuaia,AR,-54.8,-68.3,60.46,55,75,19.57,broken clouds
41,Adrar,MR,20.5022,-10.0711,80.64,14,100,7.34,overcast clouds
42,Maniitsoq,GL,65.4167,-52.9,-13.7,90,48,7.4,scattered clouds
43,Bredasdorp,ZA,-34.5322,20.0403,65.52,72,98,1.14,overcast clouds
44,Lalpur,IN,22.2,69.9667,66.78,84,0,8.01,clear sky
45,Miramar,US,25.9873,-80.2323,77.02,64,0,9.22,clear sky
46,Aksarka,RU,66.5606,67.7975,18.88,97,100,7.43,overcast clouds
47,Port Keats,AU,-14.25,129.55,79.41,86,64,4.16,broken clouds
48,Shikarpur,PK,27.9571,68.6379,64.29,28,6,4.18,clear sky
49,Abonnema,NG,4.7084,6.7931,81.54,81,72,8.16,broken clouds
50,Vaini,TO,-21.2,-175.2,80.96,79,64,18.1,moderate rain
51,Bonavista,CA,48.6499,-53.1147,33.8,71,73,25.99,broken clouds
52,Fairfield,US,41.2668,-73.3162,49.19,66,0,4.61,clear sky
53,Talca,CL,-35.4333,-71.6667,83.91,36,100,8.84,overcast clouds
54,Northam,GB,51.0333,-4.2167,49.24,91,79,11.88,broken clouds
55,Ponta Do Sol,PT,32.6667,-17.1,63.23,56,33,11.56,scattered clouds
56,Kavieng,PG,-2.5744,150.7967,78.49,89,100,11.77,light rain
57,Baiyin,CN,36.5583,104.2081,14.88,53,41,2.3,scattered clouds
58,Qaanaaq,GL,77.484,-69.3632,-6.86,55,84,9.19,broken clouds
59,Castro,BR,-24.7911,-50.0119,65.25,89,9,3.29,clear sky
60,Bathsheba,BB,13.2167,-59.5167,79.41,73,40,14.97,scattered clouds
61,Sayyan,YE,15.1718,44.3244,49.6,33,61,4.61,broken clouds
62,Palmares Do Sul,BR,-30.2578,-50.5097,76.08,69,67,12.8,broken clouds
63,Yeppoon,AU,-23.1333,150.7333,78.58,73,32,14.14,scattered clouds
64,Nikolskoye,RU,59.7035,30.7861,33.87,99,100,6.29,snow
65,Busselton,AU,-33.65,115.3333,64.22,75,0,8.79,clear sky
66,Provideniya,RU,64.3833,-173.3,23.36,86,100,8.99,heavy snow
67,Dingle,PH,10.9995,122.6711,75.22,89,100,7.47,moderate rain
68,Mahebourg,MU,-20.4081,57.7,80.26,94,75,23.02,broken clouds
69,Punta Arenas,CL,-53.15,-70.9167,66.31,39,0,18.41,clear sky
70,Albany,US,42.6001,-73.9662,53.47,86,33,0.85,scattered clouds
71,Nagua,DO,19.3832,-69.8474,78.85,78,40,11.5,scattered clouds
72,Pangnirtung,CA,66.1451,-65.7125,-29.2,68,20,0.0,few clouds
73,Belsand,IN,26.45,85.4,55.56,53,0,4.7,clear sky
74,Geraldton,AU,-28.7667,114.6,66.61,77,62,5.75,broken clouds
75,Grafton,US,42.207,-71.6856,54.12,35,0,6.91,clear sky
76,Puerto Ayora,EC,-0.7393,-90.3518,84.16,90,38,7.0,scattered clouds
77,Rawson,AR,-43.3002,-65.1023,55.56,60,94,11.95,overcast clouds
78,Sao Joao Da Barra,BR,-21.6403,-41.0511,76.77,88,45,13.06,scattered clouds
79,Erenhot,CN,43.6475,111.9767,-1.79,85,2,5.19,clear sky
80,Padang,ID,-0.9492,100.3543,76.51,89,100,4.38,overcast clouds
81,Pitanga,BR,-24.7572,-51.7614,66.13,94,64,1.57,broken clouds
82,Pangkalanbuun,ID,-2.6833,111.6167,72.93,97,100,2.73,overcast clouds
83,Butaritari,KI,3.0707,172.7902,81.23,81,75,20.02,light rain
84,Ishigaki,JP,24.3448,124.1572,64.53,88,75,19.57,broken clouds
85,Nanortalik,GL,60.1432,-45.2371,10.85,77,55,10.69,broken clouds
86,Georgetown,MY,5.4112,100.3354,78.73,98,20,2.3,few clouds
87,Kirensk,RU,57.7853,108.1119,3.29,99,99,4.18,overcast clouds
88,Nova Varos,RS,43.4606,19.8114,35.82,93,98,1.45,overcast clouds
89,Thompson,CA,55.7435,-97.8558,-9.24,54,0,8.05,clear sky
90,Saint George,US,37.1041,-113.5841,52.63,45,100,27.63,overcast clouds
91,Nagorsk,RU,59.3172,50.8078,27.07,96,97,6.91,overcast clouds
92,Bengkulu,ID,-3.8004,102.2655,75.07,89,87,3.89,overcast clouds
93,Huilong,CN,31.8111,121.655,42.04,56,96,4.45,overcast clouds
94,Banganapalle,IN,15.3167,78.2333,73.99,58,17,2.42,few clouds
95,Bryan,US,30.6744,-96.37,83.34,57,75,24.16,broken clouds
96,Colares,PT,38.7992,-9.4469,57.88,63,52,15.99,broken clouds
97,Chandbali,IN,20.7833,86.7667,68.38,90,46,4.09,scattered clouds
98,Waipawa,NZ,-41.4122,175.5153,66.94,57,2,11.63,clear sky
99,East London,ZA,-33.0153,27.9116,68.23,76,1,5.44,clear sky
100,Ulaangom,MN,49.9811,92.0667,-17.1,94,90,3.58,overcast clouds
101,Pokhara,NP,28.2333,83.9833,48.97,51,0,6.11,clear sky
102,Mataura,NZ,-46.1927,168.8643,58.48,97,100,7.45,overcast clouds
103,Lagoa,PT,39.05,-27.9833,56.73,62,94,3.65,overcast clouds
104,Tiksi,RU,71.6872,128.8694,-4.92,96,100,8.77,overcast clouds
105,Nouadhibou,MR,20.931,-17.0347,64.38,68,100,13.8,overcast clouds
106,Nyurba,RU,63.2842,118.3319,8.74,94,93,7.09,overcast clouds
107,Avarua,CK,-21.2078,-159.775,84.25,79,20,18.41,few clouds
108,Dokri,PK,27.3743,68.0967,70.77,34,7,10.04,clear sky
109,Reitoca,HN,13.8258,-87.4653,88.68,38,96,9.86,overcast clouds
110,Balabac,PH,7.9868,117.0645,78.19,84,100,10.51,moderate rain
111,Oussouye,SN,12.485,-16.5469,77.18,71,38,5.88,scattered clouds
112,Bethel,US,41.3712,-73.414,49.03,67,99,3.36,overcast clouds
113,San Clemente,US,33.427,-117.612,62.65,67,75,13.0,broken clouds
114,Xining,CN,36.6167,101.7667,14.02,65,43,3.4,scattered clouds
115,Wattegama,LK,6.7989,81.4808,70.57,95,1,1.83,clear sky
116,Auki,SB,-8.7676,160.7034,85.42,69,96,2.73,overcast clouds
117,Tautira,PF,-17.7333,-149.15,86.02,71,39,15.88,scattered clouds
118,Talaya,RU,61.3833,152.75,-39.01,99,75,0.16,broken clouds
119,Kapaa,US,22.0752,-159.319,78.48,64,0,11.5,clear sky
120,Cherskiy,RU,68.75,161.3,-48.57,100,100,4.94,overcast clouds
121,Berlevag,NO,70.8578,29.0864,19.2,79,40,11.5,scattered clouds
122,Ancud,CL,-41.8697,-73.8203,67.53,54,4,10.25,clear sky
123,Lompoc,US,34.6391,-120.4579,64.56,61,0,19.57,clear sky
124,Kutum,SD,14.2,24.6667,57.51,19,6,8.08,clear sky
125,Vila Franca Do Campo,PT,37.7167,-25.4333,58.19,69,82,8.37,broken clouds
126,Berdigestyakh,RU,62.0989,126.6992,8.91,96,100,3.69,overcast clouds
127,Manaure,CO,11.7751,-72.4445,82.51,60,54,21.43,broken clouds
128,Kaitangata,NZ,-46.2817,169.8464,63.93,74,100,5.28,moderate rain
129,Bolgar,RU,54.95,49.0667,17.51,93,100,8.86,overcast clouds
130,Iqaluit,CA,63.7506,-68.5145,-29.47,68,75,20.71,broken clouds
131,Gbarnga,LR,6.9956,-9.4722,72.64,98,78,3.67,light rain
132,Hofn,IS,64.2539,-15.2082,36.9,98,100,54.2,heavy intensity rain
133,Tasiilaq,GL,65.6145,-37.6368,26.76,77,100,38.27,light snow
134,Krasnoborsk,RU,61.5598,45.934,23.47,98,97,3.53,overcast clouds
135,San Juan,AR,-31.5375,-68.5364,67.46,64,97,15.79,light rain
136,Marsh Harbour,BS,26.5412,-77.0636,72.57,72,50,18.88,scattered clouds
137,Anuradhapura,LK,8.3565,80.4173,70.07,97,50,4.07,scattered clouds
138,Katsuura,JP,35.1333,140.3,35.11,49,69,4.72,broken clouds
139,Faanui,PF,-16.4833,-151.75,81.3,76,100,19.66,light rain
140,Male,MV,4.1748,73.5089,80.55,83,20,2.3,few clouds
141,Bambous Virieux,MU,-20.3428,57.7575,80.22,94,75,23.02,light rain
142,Phan Thiet,VN,10.9333,108.1,73.04,87,89,3.65,overcast clouds
143,Varzea Da Palma,BR,-17.5981,-44.7308,71.6,93,77,2.44,light rain
144,Sangar,RU,63.9242,127.4739,-13.4,93,100,7.72,overcast clouds
145,Saint-Philippe,RE,-21.3585,55.7679,85.59,91,100,28.19,moderate rain
146,Souillac,MU,-20.5167,57.5167,80.37,94,75,23.02,broken clouds
147,Japura,ID,-0.3167,102.35,72.41,98,100,1.7,overcast clouds
148,Tiarei,PF,-17.5333,-149.3333,86.02,72,50,16.64,scattered clouds
149,Coquimbo,CL,-29.9533,-71.3436,65.93,72,0,13.8,clear sky
150,Swellendam,ZA,-34.0226,20.4417,64.78,78,85,3.29,overcast clouds
151,Hot Springs,US,34.5037,-93.0552,67.73,94,100,6.91,mist
152,Yellowknife,CA,62.456,-114.3525,-10.59,79,20,11.5,few clouds
153,Sergeyevka,KZ,53.88,67.4158,23.9,95,100,9.73,overcast clouds
154,Stribro,CZ,49.7529,13.0041,38.86,78,77,17.78,broken clouds
155,Carnarvon,AU,-24.8667,113.6333,80.67,74,65,14.97,broken clouds
156,Grindavik,IS,63.8424,-22.4338,36.07,93,100,46.04,heavy intensity rain
157,Leningradskiy,RU,69.3833,178.4167,-27.8,97,90,7.72,overcast clouds
158,Hambantota,LK,6.1241,81.1185,76.06,87,3,4.21,clear sky
159,Biak,ID,-0.9131,122.8766,75.6,84,100,7.4,overcast clouds
160,Dikson,RU,73.5069,80.5464,14.05,93,100,14.79,light snow
161,Narsaq,GL,60.9167,-46.05,-0.18,78,8,6.44,clear sky
162,Hamadan,IR,34.7992,48.5146,29.28,93,0,6.91,clear sky
163,Mar Del Plata,AR,-38.0023,-57.5575,68.02,91,75,14.97,broken clouds
164,Saurimo,AO,-9.6608,20.3916,64.11,96,97,3.2,overcast clouds
165,Shimanovsk,RU,52.0,127.7,-8.57,91,8,6.71,clear sky
166,Batsfjord,NO,70.6345,29.7185,23.22,86,0,2.3,clear sky
167,Adre,TD,13.4667,22.2,65.77,16,10,13.69,clear sky
168,Fortuna,US,40.5982,-124.1573,47.93,87,100,11.5,moderate rain
169,Sakakah,SA,29.9697,40.2064,49.57,45,19,4.45,few clouds
170,Ostrovnoy,RU,68.0531,39.5131,19.6,85,100,6.15,overcast clouds
171,Eucaliptus,BO,-17.5833,-67.5167,55.09,61,91,5.79,overcast clouds
172,Goderich,CA,43.7501,-81.7165,39.52,81,100,6.91,overcast clouds
173,Pinega,RU,64.7001,43.3936,4.78,100,92,3.6,overcast clouds
174,Hargeysa,SO,9.56,44.065,59.4,97,46,10.76,scattered clouds
175,Kalundborg,DK,55.6795,11.0886,39.94,79,54,14.18,broken clouds
176,Thunder Bay,CA,48.4001,-89.3168,-0.44,58,100,11.5,overcast clouds
177,Vallenar,CL,-28.5708,-70.7581,74.77,42,0,6.44,clear sky
178,Mitchell,US,43.7094,-98.0298,11.73,85,100,19.57,overcast clouds
179,Salalah,OM,17.0151,54.0924,71.69,73,0,3.44,clear sky
180,Khatanga,RU,71.9667,102.5,4.42,92,100,7.38,overcast clouds
181,Upernavik,GL,72.7868,-56.1549,-24.86,99,95,6.6,overcast clouds
182,Orsha,BY,54.5153,30.4053,35.67,98,100,10.94,light rain
183,Namibe,AO,-15.1961,12.1522,76.55,81,92,5.39,overcast clouds
184,Westport,US,41.1415,-73.3579,50.29,66,0,4.61,clear sky
185,Lake Havasu City,US,34.4839,-114.3224,76.32,25,0,19.57,clear sky
186,Luderitz,NA,-26.6481,15.1594,71.04,61,34,18.66,scattered clouds
187,Samarai,PG,-10.6167,150.6667,84.11,74,100,8.59,overcast clouds
188,Muzhi,RU,65.3667,64.6667,15.13,97,96,5.12,overcast clouds
189,Korla,CN,41.7597,86.1469,27.9,45,0,4.54,clear sky
190,Liezen,AT,47.5667,14.2333,37.13,96,97,3.94,snow
191,Severo-Kurilsk,RU,50.6789,156.125,31.75,82,97,16.02,overcast clouds
192,Simao,CN,22.7886,100.9748,48.96,98,100,2.48,overcast clouds
193,Ondangwa,NA,-17.9167,15.95,77.0,78,53,3.44,broken clouds
194,Te Anau,NZ,-45.4167,167.7167,57.34,95,100,2.51,light rain
195,The Valley,AI,18.217,-63.0578,78.94,69,20,12.66,few clouds
196,Vicente Guerrero,MX,19.1194,-98.1708,78.19,14,1,10.8,clear sky
197,Gold Coast,AU,-28.0,153.4333,83.25,86,40,5.75,scattered clouds
198,Taraza,CO,7.5836,-75.4007,79.77,77,82,3.31,broken clouds
199,Riverton,US,40.5219,-111.9391,37.27,59,100,12.66,light rain
200,Cam Ranh,VN,11.9214,109.1591,71.56,73,40,14.97,scattered clouds
201,New Norfolk,AU,-42.7826,147.0587,60.93,40,14,2.62,few clouds
202,Victoria,HK,22.2855,114.1577,51.24,94,99,5.01,overcast clouds
203,Touros,BR,-5.1989,-35.4608,81.5,75,97,13.38,overcast clouds
204,Bonawon,PH,9.134,122.9193,78.3,80,100,9.82,overcast clouds
205,Puerto El Triunfo,SV,13.2833,-88.55,91.56,47,66,8.28,broken clouds
206,Prainha,BR,-1.8,-53.48,76.44,92,98,3.42,overcast clouds
207,Lorengau,PG,-2.0226,147.2712,77.61,90,100,8.77,overcast clouds
208,Tiruchchendur,IN,8.4833,78.1167,79.38,79,46,3.56,scattered clouds
209,Jining,CN,35.405,116.5814,29.5,39,68,5.66,broken clouds
210,Saskylakh,RU,71.9167,114.0833,2.14,98,87,6.15,overcast clouds
211,Abha,SA,18.2164,42.5053,53.42,28,0,5.75,clear sky
212,Portland,US,45.5234,-122.6762,45.55,88,75,10.36,light rain
213,Torbay,CA,47.6666,-52.7314,37.58,85,100,27.63,overcast clouds
214,Olinda,BR,-8.0089,-34.8553,83.93,65,20,6.91,few clouds
215,Margate,GB,51.3813,1.3862,46.31,70,56,5.01,broken clouds
216,Quatre Cocos,MU,-20.2078,57.7625,80.1,90,84,15.99,light rain
217,Iquique,CL,-20.2208,-70.1431,73.44,81,32,5.28,scattered clouds
218,Asau,RO,46.4333,26.4,44.76,65,100,4.88,overcast clouds
219,Hithadhoo,MV,-0.6,73.0833,82.27,71,93,9.42,overcast clouds
220,Klaksvik,FO,62.2266,-6.589,36.52,67,100,38.7,overcast clouds
221,Bilma,NE,18.6853,12.9164,68.11,11,0,6.44,clear sky
222,Broome,US,42.2506,-75.833,54.18,35,0,9.22,clear sky
223,Uong Bi,VN,21.0333,106.7833,51.78,79,100,3.24,overcast clouds
224,Barcelos,PT,41.5388,-8.6151,56.84,76,17,5.48,few clouds
225,Vao,NC,-22.6667,167.4833,79.99,80,100,13.18,overcast clouds
226,Kyela,TZ,-9.5833,33.85,74.12,77,100,3.02,overcast clouds
227,Usinsk,RU,65.9939,57.5281,21.47,97,100,4.09,light snow
228,Saint-Augustin,CA,51.226,-58.6502,4.98,60,77,23.71,broken clouds
229,Norman Wells,CA,65.282,-126.8329,-14.76,64,20,3.44,few clouds
230,Isla Mujeres,MX,21.2311,-86.731,80.65,72,10,15.39,clear sky
231,Ayorou,NE,14.7308,0.9174,72.28,7,4,10.8,clear sky
232,Guozhen,CN,34.3659,107.359,34.27,51,99,2.84,overcast clouds
233,Ventspils,LV,57.3894,21.5606,35.53,93,100,11.5,overcast clouds
234,Coihaique,CL,-45.5752,-72.0662,66.15,27,0,10.36,clear sky
235,Avera,US,33.194,-82.5271,65.08,86,100,8.7,overcast clouds
236,Pacific Grove,US,36.6177,-121.9166,59.88,64,0,18.41,clear sky
237,Kurchum,KZ,48.5722,83.6542,-3.19,88,9,2.44,clear sky
238,Cockburn Town,TC,21.4612,-71.1419,77.27,73,4,16.93,clear sky
239,Talnakh,RU,69.4865,88.3972,15.21,82,100,19.95,overcast clouds
240,Brufut,GM,13.3814,-16.7518,71.69,73,71,9.22,broken clouds
241,Garowe,SO,8.4054,48.4845,69.51,76,2,7.14,clear sky
242,Ossora,RU,59.2353,163.0719,-12.41,79,35,3.29,scattered clouds
243,Praia,CV,14.9215,-23.5087,70.34,78,75,17.27,broken clouds
244,Tateyama,JP,34.9833,139.8667,35.02,60,88,5.86,overcast clouds
245,Mecca,SA,21.4267,39.8261,71.44,34,0,1.97,clear sky
246,Yulara,AU,-25.2406,130.9889,67.84,49,0,6.91,clear sky
247,Amga,RU,60.8953,131.9608,-1.19,99,100,2.64,light snow
248,Fort Nelson,CA,58.8053,-122.7002,-0.81,60,0,0.0,clear sky
249,Kholodnyy,RU,62.7167,147.95,-42.38,99,71,0.63,broken clouds
250,Puerto Suarez,BO,-18.95,-57.8,82.63,68,57,5.88,broken clouds
251,Meulaboh,ID,4.1363,96.1285,75.25,91,79,3.62,broken clouds
252,Cabedelo,BR,-6.9811,-34.8339,83.07,73,72,11.07,broken clouds
253,Novoagansk,RU,61.9449,76.6625,18.95,94,100,9.71,overcast clouds
254,Ankang,CN,32.68,109.0172,41.29,54,100,1.72,overcast clouds
255,Vanderhoof,CA,54.0166,-124.0198,12.88,52,13,10.07,few clouds
256,Vostok,RU,46.4856,135.8833,1.33,96,100,3.2,light snow
257,Vardo,NO,70.3705,31.1107,23.2,59,100,6.33,overcast clouds
258,Camana,PE,-16.6228,-72.7111,73.04,82,76,6.85,broken clouds
259,Mumford,GH,5.2618,-0.759,80.19,88,28,10.29,scattered clouds
260,Lazaro Cardenas,MX,17.9583,-102.2,84.58,53,1,14.05,clear sky
261,Hailey,US,43.5196,-114.3153,26.46,63,0,9.22,clear sky
262,Bani Walid,LY,31.7566,13.9942,53.73,68,3,3.69,clear sky
263,Cedar City,US,37.6775,-113.0619,36.18,93,100,4.61,snow
264,Sembe,CG,1.6481,14.5806,75.4,64,76,2.06,broken clouds
265,Tilichiki,RU,60.4667,166.1,-20.79,89,24,10.04,few clouds
266,Atascocita,US,29.9988,-95.1766,82.65,65,40,12.66,scattered clouds
267,Diamantino,BR,-14.4086,-56.4461,71.87,94,75,4.85,broken clouds
268,Viesca,MX,25.35,-102.8,89.96,11,8,19.64,clear sky
269,Banjarmasin,ID,-3.3244,114.591,75.34,95,100,2.62,light rain
270,Roma,US,43.2128,-75.4557,53.46,43,0,0.0,clear sky
271,Ilulissat,GL,69.2167,-51.1,-0.38,71,75,9.22,broken clouds
272,Holland,US,42.7875,-86.1089,42.42,79,0,17.27,clear sky
273,Usevya,TZ,-7.1,31.2333,65.07,94,100,2.13,overcast clouds
274,Laguna,US,38.421,-121.4238,62.06,27,0,12.66,clear sky
275,Muscat,OM,23.6139,58.5922,73.42,62,0,13.49,clear sky
276,Porto San Giorgio,IT,43.1827,13.7934,48.18,81,77,21.41,light rain
277,Honiara,SB,-9.4333,159.95,87.3,66,96,1.77,overcast clouds
278,Bourail,NC,-21.5667,165.4833,84.87,65,88,4.92,overcast clouds
279,Hovd,MN,48.0056,91.6419,-9.27,90,41,2.95,scattered clouds
280,Butembo,CD,0.15,29.2833,59.63,60,99,2.8,overcast clouds
281,Lityn,UA,49.3251,28.0809,41.04,92,100,8.16,overcast clouds
282,Paita,PE,-5.0892,-81.1144,84.76,78,39,13.44,scattered clouds
283,Channel-Port Aux Basques,CA,47.5702,-59.1367,30.27,84,32,21.85,scattered clouds
284,Longyearbyen,SJ,78.2186,15.6401,-2.36,84,20,4.61,few clouds
285,Port Blair,IN,11.6667,92.75,71.64,94,20,2.3,mist
286,Berezovyy,RU,51.6667,135.7,-5.96,91,60,4.05,broken clouds
287,Noumea,NC,-22.2763,166.4572,82.99,99,99,6.58,overcast clouds
288,Barrhead,GB,55.7992,-4.3929,46.65,87,75,8.05,broken clouds
289,Ivybridge,GB,50.3904,-3.9191,49.08,90,67,12.1,broken clouds
290,Iskateley,RU,67.6803,53.1512,11.44,97,95,4.99,overcast clouds
291,Comodoro Rivadavia,AR,-45.8667,-67.5,57.06,54,20,10.36,few clouds
292,Hammerfest,NO,70.6634,23.6821,16.25,73,0,4.61,clear sky
293,Piuma,BR,-20.8378,-40.7219,76.06,91,84,9.69,broken clouds
294,Orumiyeh,IR,37.5527,45.0761,35.15,75,40,4.61,scattered clouds
295,Ust-Tsilma,RU,65.441,52.1498,19.15,96,99,5.68,overcast clouds
296,Xiaoweizhai,CN,26.1903,107.5125,31.21,90,100,6.93,light snow
297,Huangchuan,CN,32.1272,115.0394,38.25,56,100,2.75,overcast clouds
298,Barentin,FR,49.5453,0.9552,47.52,81,38,14.38,scattered clouds
299,Hervey Bay,AU,-25.2986,152.8535,82.04,77,4,8.01,clear sky
300,Hualmay,PE,-11.0964,-77.6139,73.38,78,96,6.78,overcast clouds
301,Biloela,AU,-24.4167,150.5,81.1,56,0,6.6,clear sky
302,Nishihara,JP,26.1842,127.7558,56.86,82,75,12.66,broken clouds
303,Pevek,RU,69.7008,170.3133,-34.89,94,99,2.01,overcast clouds
304,Vanimo,PG,-2.6741,141.3028,78.3,88,100,4.41,moderate rain
305,Kavaratti,IN,10.5669,72.642,80.4,66,1,13.29,clear sky
306,Nioro,GM,13.35,-15.75,79.54,30,84,4.03,broken clouds
307,Airai,TL,-8.9266,125.4092,60.04,98,100,0.67,moderate rain
308,Zhangjiakou,CN,40.81,114.8794,-1.46,86,3,4.9,light snow
309,Yar-Sale,RU,66.8333,70.8333,18.23,96,100,8.01,overcast clouds
310,Aguilas,ES,37.4063,-1.5829,58.21,46,0,6.38,clear sky
311,Darab,IR,28.7519,54.5444,51.31,46,50,3.13,scattered clouds
312,Kloulklubed,PW,7.0419,134.2556,81.1,80,94,25.84,overcast clouds
313,Port Macquarie,AU,-31.4333,152.9167,77.9,80,96,0.51,overcast clouds
314,Isangel,VU,-19.55,169.2667,84.63,70,96,7.34,overcast clouds
315,Lebu,CL,-37.6167,-73.65,63.34,66,94,5.64,overcast clouds
316,Sterling,US,39.0062,-77.4286,64.4,23,75,13.8,broken clouds
317,Hasaki,JP,35.7333,140.8333,32.29,37,45,6.64,scattered clouds
318,Lavrentiya,RU,65.5833,-171.0,21.09,95,100,2.17,light snow
319,Chara,RU,56.9064,118.2631,-6.12,81,98,1.81,overcast clouds
320,Yangjiang,CN,21.85,111.9667,49.95,93,100,8.32,overcast clouds
321,Petropavlovsk-Kamchatskiy,RU,53.0452,158.6483,27.19,64,75,11.18,broken clouds
322,Zhob,PK,31.3411,69.4481,52.57,40,76,5.91,broken clouds
323,Puerto Madero,MX,14.7208,-92.4215,83.01,60,42,8.95,scattered clouds
324,Veinticinco De Mayo,AR,-35.4323,-60.1727,75.06,57,74,7.81,broken clouds
325,Hirara,JP,24.8,125.2833,62.87,82,75,13.8,broken clouds
326,Skibbereen,IE,51.55,-9.2667,53.11,87,99,18.68,overcast clouds
327,Oktyabrskiy,RU,54.4815,53.471,27.99,93,98,7.0,overcast clouds
328,Tabuk,PH,17.4189,121.4443,71.02,96,100,0.69,overcast clouds
329,Ottumwa,US,41.02,-92.4113,60.21,64,75,13.8,broken clouds
330,Inuvik,CA,68.3499,-133.7218,-3.14,74,20,6.91,few clouds
331,Dunedin,NZ,-45.8742,170.5036,63.81,67,73,7.45,light rain
332,Natal,BR,-5.795,-35.2094,82.62,78,40,11.5,scattered clouds
333,Turukhansk,RU,65.8167,87.9833,17.1,87,100,17.31,overcast clouds
334,Maragogi,BR,-9.0122,-35.2225,79.75,74,13,8.21,few clouds
335,Masty,BY,53.4122,24.5387,36.54,74,42,17.47,scattered clouds
336,Moose Factory,CA,51.2585,-80.6094,-7.6,49,0,4.61,clear sky
337,Porto Novo,BJ,6.4965,2.6036,79.68,83,61,5.82,broken clouds
338,Bam,IR,29.106,58.357,53.35,46,20,0.85,few clouds
339,Felipe Carrillo Puerto,MX,19.5833,-88.05,79.61,68,40,6.33,scattered clouds
340,Narrabri,AU,-30.3167,149.7833,72.52,73,75,4.61,broken clouds
341,Paamiut,GL,61.994,-49.6678,-4.0,77,25,8.39,scattered clouds
342,Ambilobe,MG,-13.2,49.05,74.89,95,100,4.36,light rain
343,Bossangoa,CF,6.4926,17.4552,74.55,20,47,2.13,scattered clouds
344,Hami,CN,42.8,93.45,28.8,34,0,5.19,clear sky
345,Blagoyevo,RU,63.3667,47.9167,15.71,97,100,3.18,overcast clouds
346,Chalmette,US,29.9427,-89.9634,78.78,71,75,16.11,broken clouds
347,Zyryanka,RU,65.75,150.85,-39.96,99,60,5.5,broken clouds
348,Anloga,GH,5.7947,0.8973,80.83,86,46,10.36,scattered clouds
349,San Buenaventura,MX,27.0833,-101.5333,97.48,10,0,19.69,clear sky
350,Bambanglipuro,ID,-7.95,110.2833,76.68,89,88,3.51,moderate rain
351,Puerto Del Rosario,ES,28.5004,-13.8627,60.48,63,20,5.75,few clouds
352,Nador,MA,35.174,-2.9287,55.65,88,0,3.44,clear sky
353,Kahului,US,20.8947,-156.47,82.42,75,40,21.85,scattered clouds
354,Hamilton,US,39.1834,-84.5333,65.25,47,75,17.27,broken clouds
355,Roura,GF,4.7263,-52.3274,76.96,94,100,3.44,overcast clouds
356,Saint-Pierre,RE,-21.3393,55.4781,83.88,61,100,17.27,overcast clouds
357,Alta Floresta,BR,-9.8756,-56.0861,73.58,97,67,3.65,broken clouds
358,Balaipungut,ID,1.05,101.2833,77.41,98,100,1.23,overcast clouds
359,Lata,PT,40.1629,-8.3327,55.81,77,4,3.78,clear sky
360,Kaduqli,SD,11.0167,29.7167,72.99,14,28,10.09,scattered clouds
361,Batangafo,CF,7.3008,18.2833,73.87,21,56,3.38,broken clouds
362,Kropotkin,RU,45.4375,40.5756,42.76,90,80,6.24,broken clouds
363,Bibiani,GH,6.4635,-2.3194,75.15,84,91,1.97,overcast clouds
364,Nome,US,64.5011,-165.4064,33.87,86,100,21.85,overcast clouds
365,Port Lincoln,AU,-34.7333,135.8667,63.7,64,9,9.69,clear sky
366,Parana,AR,-31.732,-60.5238,82.56,44,4,6.13,clear sky
367,College,US,64.8569,-147.8028,18.81,72,100,5.75,overcast clouds
368,Qostanay,KZ,53.1667,63.5833,24.17,93,100,9.8,overcast clouds
369,Bako,ET,5.7833,36.5667,66.09,57,76,4.07,broken clouds
370,Walvis Bay,NA,-22.9575,14.5053,71.1,88,7,5.75,clear sky
371,Kudahuvadhoo,MV,2.6708,72.8944,81.12,68,0,8.39,clear sky
372,Humaita,BR,-7.5061,-63.0208,75.4,97,100,2.42,overcast clouds
373,Xai-Xai,MZ,-25.0519,33.6442,74.59,82,53,7.18,broken clouds
374,Brae,GB,60.3964,-1.353,30.11,56,82,5.32,broken clouds
375,Charters Towers,AU,-20.1,146.2667,80.46,66,10,8.84,clear sky
376,Grootfontein,NA,-19.5667,18.1167,67.57,83,38,3.44,scattered clouds
377,Nikolayevsk-Na-Amure,RU,53.1406,140.73,-9.11,98,75,4.54,broken clouds
378,Tessalit,ML,20.1986,1.0114,73.9,9,21,9.48,few clouds
379,Kupang,ID,-10.1667,123.5833,75.04,93,100,5.01,overcast clouds
380,Stornoway,GB,58.2093,-6.3865,44.92,81,75,28.77,broken clouds
381,Makakilo City,US,21.3469,-158.0858,79.12,62,100,14.97,overcast clouds
382,Abilene,US,32.4487,-99.7331,78.66,38,100,12.66,overcast clouds
383,Peruibe,BR,-24.32,-46.9983,76.28,89,12,6.64,few clouds
384,Ahtopol,BG,42.1,27.95,39.67,90,4,8.16,clear sky
385,Castelbuono,IT,37.932,14.0886,53.4,63,47,12.35,scattered clouds
386,Bandarbeyla,SO,9.4942,50.8122,76.41,80,12,14.56,few clouds
387,Ostersund,SE,63.1792,14.6357,19.85,93,100,4.61,overcast clouds
388,Jalu,LY,29.0331,21.5482,60.98,46,20,9.24,few clouds
389,San Julian,MX,21.0167,-102.1667,79.2,19,4,12.64,clear sky
390,Lhokseumawe,ID,5.1801,97.1507,76.14,89,89,4.23,overcast clouds
391,Invermere,CA,50.5167,-116.0354,16.43,34,100,2.39,overcast clouds
392,Novikovo,RU,51.1537,37.8879,36.54,85,100,13.82,overcast clouds
393,Sept-Iles,CA,50.2001,-66.3821,7.32,40,20,12.66,few clouds
394,Port-Gentil,GA,-0.7193,8.7815,81.59,78,100,5.84,overcast clouds
395,Koutsouras,GR,35.0339,25.9469,60.12,82,29,17.34,scattered clouds
396,Guasdualito,VE,7.2424,-70.7324,93.2,29,20,6.91,few clouds
397,Talagante,CL,-33.6667,-70.9333,81.77,50,47,7.87,scattered clouds
398,Codrington,AU,-38.2667,141.9667,62.51,50,48,10.2,scattered clouds
399,Susice,CZ,49.2311,13.5202,39.0,94,93,18.86,overcast clouds
400,Sungaipenuh,ID,-2.0833,101.3833,64.17,95,100,3.4,overcast clouds
401,Macherla,IN,16.4833,79.4333,71.82,71,21,2.64,few clouds
402,Camacha,PT,33.0833,-16.3333,59.76,77,40,16.11,scattered clouds
403,Esperance,AU,-33.8667,121.9,60.64,65,2,12.24,clear sky
404,Vestmanna,FO,62.1564,-7.1664,34.72,75,75,32.21,light snow
405,Gasa,PS,31.5,34.4667,55.38,75,70,5.08,broken clouds
406,Sioux Lookout,CA,50.1001,-91.917,-7.53,59,100,4.61,overcast clouds
407,Thinadhoo,MV,0.5333,72.9333,81.95,72,60,9.66,broken clouds
408,Alofi,NU,-19.0595,-169.9187,80.49,89,100,6.91,overcast clouds
409,Labrea,BR,-7.2586,-64.7981,75.69,97,91,2.93,overcast clouds
410,Vidalia,US,32.2177,-82.4135,69.48,88,100,0.0,light rain
411,Saint Anthony,US,45.0205,-93.218,22.3,71,100,18.41,overcast clouds
412,Yaya,RU,56.206,86.44,16.68,81,31,11.36,scattered clouds
413,Ahipara,NZ,-35.1667,173.1667,76.68,59,22,4.5,few clouds
414,Kununurra,AU,-15.7667,128.7333,82.38,83,94,0.0,overcast clouds
415,Komsomolskiy,UZ,40.4272,71.7189,45.82,56,80,9.22,broken clouds
416,Basoko,CD,1.2391,23.616,74.79,59,67,2.17,broken clouds
417,Altagracia De Orituco,VE,9.8601,-66.3814,73.71,70,54,8.19,broken clouds
418,Sao Felix Do Xingu,BR,-6.6447,-51.995,73.83,97,67,2.28,broken clouds
419,Merauke,ID,-8.4667,140.3333,78.46,89,100,9.51,overcast clouds
420,Luanda,AO,-8.8368,13.2343,80.6,78,40,6.91,scattered clouds
421,Xalpatlahuac,MX,17.4667,-98.6167,77.68,37,22,6.8,few clouds
422,Motygino,RU,58.1831,94.7592,1.35,100,100,1.83,overcast clouds
423,Zhoucheng,CN,35.9122,116.3117,27.41,37,44,6.78,scattered clouds
424,Luanshya,ZM,-13.1367,28.4166,62.13,98,98,2.73,overcast clouds
425,Corowa,AU,-36.0333,146.3833,77.0,42,0,7.52,clear sky
426,Coron,PH,11.9986,120.2043,77.99,82,91,5.53,overcast clouds
427,Andra,RU,62.5147,65.8878,23.85,97,100,7.92,light snow
428,Praia Da Vitoria,PT,38.7333,-27.0667,54.75,93,20,5.79,few clouds
429,Pyatnitskoye,RU,50.4233,37.8273,36.95,84,100,14.5,overcast clouds
430,Maan,PH,5.9339,124.7356,77.59,77,100,2.51,overcast clouds
431,Tokmak,UA,47.2514,35.7058,40.08,90,100,10.29,overcast clouds
432,Mayo,US,38.8876,-76.5119,64.35,61,0,11.5,clear sky
433,Labuhan,ID,-6.8844,112.2051,77.52,87,100,7.74,overcast clouds
434,Lucea,JM,18.451,-78.1736,82.26,74,19,11.45,few clouds
435,Benton,US,36.3334,-94.3335,67.91,77,100,16.11,overcast clouds
436,Mindelo,CV,16.8901,-24.9804,69.35,64,75,25.32,broken clouds
437,Mount Gambier,AU,-37.8333,140.7667,58.91,63,100,9.22,overcast clouds
438,Bubaque,GW,11.2833,-15.8333,76.42,67,23,14.63,few clouds
439,Odweyne,SO,9.4092,45.064,64.24,53,18,9.13,few clouds
440,Fuzhou,CN,26.0614,119.3061,46.29,93,100,2.66,overcast clouds
441,Marzuq,YE,14.4,46.4667,60.66,33,91,4.07,overcast clouds
442,Vengerovo,RU,55.6848,76.7471,20.98,95,98,9.93,overcast clouds
443,Savannah Bight,HN,16.45,-85.85,82.45,75,78,19.51,broken clouds
444,Husavik,IS,66.0449,-17.3389,33.71,75,100,47.78,snow
445,Sorkjosen,NO,69.8,20.9333,12.31,83,74,7.99,broken clouds
446,La Rioja,ES,42.25,-2.5,41.31,95,11,3.6,few clouds
447,Kobayashi,JP,31.9833,130.9833,35.1,66,23,4.61,few clouds
448,Chokurdakh,RU,70.6333,147.9167,-41.53,99,57,6.87,broken clouds
449,Krasnoselkup,RU,65.7,82.4667,16.21,94,100,17.52,light snow
450,Otanche,CO,5.6567,-74.1825,69.64,89,100,1.99,overcast clouds
451,Tayu,ID,-6.5397,111.0518,76.8,89,99,4.88,overcast clouds
452,Kugulta,RU,45.3636,42.3889,39.78,89,100,4.99,overcast clouds
453,Chitipa,MW,-9.7024,33.2697,63.03,96,100,1.97,overcast clouds
454,Kousseri,CM,12.0769,15.0306,76.96,13,19,10.36,few clouds
455,Mandalgovi,MN,45.7625,106.2708,4.95,81,0,8.48,clear sky
456,Itirucu,BR,-13.5317,-40.1503,65.57,96,99,4.09,overcast clouds
457,Zhigansk,RU,66.7697,123.3711,-8.9,98,99,10.18,overcast clouds
458,Chuy,UY,-33.6971,-53.4616,69.84,78,57,10.98,broken clouds
459,Dimapur,IN,25.9,93.7333,53.02,80,43,3.36,scattered clouds
460,Trincomalee,LK,8.5711,81.2335,78.44,81,28,5.46,scattered clouds
461,Caravelas,BR,-17.7125,-39.2481,76.69,85,7,5.48,clear sky
462,Behbahan,IR,30.5959,50.2417,51.12,67,21,3.85,few clouds
463,Aizkraukle,LV,56.6048,25.2553,34.9,90,100,16.75,light snow
464,Betioky,MG,-23.7167,44.3833,75.88,62,0,6.29,clear sky
465,Saldanha,ZA,-33.0117,17.9442,62.65,88,20,11.86,few clouds
466,Tulun,RU,54.5611,100.5792,-3.23,100,98,4.03,overcast clouds
467,Kuminskiy,RU,58.6667,66.5667,19.85,94,83,6.22,broken clouds
468,Beira,MZ,-19.8436,34.8389,82.49,83,40,8.05,scattered clouds
469,Porto Seguro,BR,-16.4497,-39.0647,81.12,74,20,10.36,few clouds
470,Aksaray,TR,38.3726,34.0254,42.39,72,98,3.09,overcast clouds
471,Axim,GH,4.8699,-2.2405,79.63,89,28,7.74,scattered clouds
472,Fare,PF,-16.7,-151.0167,81.45,74,100,18.19,light rain
473,Cruz Do Espirito Santo,BR,-7.14,-35.0864,82.96,74,0,10.36,clear sky
474,Ajdabiya,LY,30.7554,20.2263,58.33,86,31,12.37,scattered clouds
475,Clinton,US,42.587,-82.9199,46.47,81,0,5.75,clear sky
476,Lodwar,KE,3.1191,35.5973,83.91,35,100,7.36,overcast clouds
477,Sorland,NO,67.667,12.6934,32.34,52,29,0.49,scattered clouds
478,Umm Kaddadah,SD,13.6017,26.6876,61.65,18,8,11.7,clear sky
479,Sedhiou,SN,12.7081,-15.5569,80.73,40,49,4.92,scattered clouds
480,Tura,IN,25.5198,90.2201,55.67,57,0,3.67,clear sky
481,Faya,SA,18.3851,42.4509,53.71,34,71,4.29,broken clouds
482,Marshall,US,34.3834,-86.3333,52.81,81,100,5.01,overcast clouds
483,Nachingwea,TZ,-10.3833,38.7667,72.9,95,100,1.88,overcast clouds
484,Rutana,BI,-3.8667,30.1,57.27,92,100,2.84,light rain
485,South Yuba City,US,39.1166,-121.6391,60.91,24,0,13.8,clear sky
486,Cradock,ZA,-32.1642,25.6192,61.11,84,11,5.66,few clouds
487,Taoudenni,ML,22.6783,-3.9836,81.27,10,80,10.54,broken clouds
488,Vaitape,PF,-16.5167,-151.75,81.3,76,100,19.64,light rain
489,Santa Isabel Do Rio Negro,BR,-0.4139,-65.0192,77.88,86,43,2.3,scattered clouds
490,Upington,ZA,-28.4478,21.2561,70.18,30,0,5.75,clear sky
491,Estepona,ES,36.4276,-5.1459,58.82,81,0,3.98,clear sky
492,Marawi,PH,7.9986,124.2928,63.64,83,100,1.54,overcast clouds
493,Korhogo,CI,9.45,-5.6333,79.09,15,24,4.7,few clouds
494,Sokolka,PL,53.4072,23.5023,35.65,73,28,18.99,scattered clouds
495,Fairbanks,US,64.8378,-147.7164,19.09,72,100,5.75,overcast clouds
496,Sapa,PH,5.1544,120.3241,76.51,85,100,7.94,overcast clouds
497,Huambo,AO,-12.7761,15.7392,58.91,97,97,1.7,overcast clouds
498,Goundam,ML,16.4145,-3.6708,75.38,7,2,8.84,clear sky
499,Presidente Dutra,BR,-5.29,-44.49,74.93,91,93,1.57,overcast clouds
500,Medvedok,RU,57.3891,50.0351,26.53,97,100,6.38,overcast clouds
501,Knin,HR,44.0439,16.2,47.39,78,100,12.48,overcast clouds
502,Vestmannaeyjar,IS,63.4427,-20.2734,42.39,85,100,41.85,overcast clouds
503,Vila Velha,BR,-20.3297,-40.2925,80.55,87,40,6.91,scattered clouds
504,Belyy Yar,RU,53.6039,91.3903,-7.71,57,20,2.24,mist
505,Osakarovka,KZ,50.565,72.5692,10.58,91,99,3.98,overcast clouds
506,Otautau,NZ,-46.15,168.0,58.44,98,95,5.01,overcast clouds
507,Ayaviri,PE,-14.8864,-70.5889,45.46,81,89,9.28,overcast clouds
508,Antofagasta,CL,-23.65,-70.4,69.08,81,7,7.85,clear sky
509,Muros,ES,42.7762,-9.0603,49.84,89,18,8.52,few clouds
510,Dubbo,AU,-32.25,148.6167,71.73,78,100,11.5,overcast clouds
511,Grand Gaube,MU,-20.0064,57.6608,80.38,86,88,10.0,overcast clouds
512,Cobija,BO,-11.0267,-68.7692,73.98,97,46,3.98,light rain
513,Deputatskiy,RU,69.3,139.9,-15.39,79,100,4.27,overcast clouds
514,Solnechnyy,RU,50.7214,136.6319,-1.19,93,97,2.28,overcast clouds
515,Hobyo,SO,5.3505,48.5268,77.94,82,8,16.2,clear sky
516,Arlit,NE,18.7369,7.3853,68.83,8,0,4.83,clear sky
517,Kerema,PG,-7.9631,145.7785,79.68,86,100,2.66,overcast clouds
518,Mama,RU,58.3106,112.8986,8.46,98,100,4.23,overcast clouds
519,Zonguldak,TR,41.25,31.8333,42.8,79,0,4.94,clear sky
520,San Lorenzo,PY,-25.3333,-57.5333,77.94,83,75,5.99,broken clouds
521,Skjervoy,NO,70.0311,20.9714,23.56,65,80,6.96,broken clouds
522,Gidam,IN,18.9833,81.4,61.43,29,55,3.06,broken clouds
523,Uvira,CD,-3.4067,29.1458,72.54,84,100,2.89,overcast clouds
524,Loreto,MX,22.2667,-101.9667,77.61,16,2,16.53,clear sky
525,Manzanillo,CU,20.3433,-77.1167,80.87,54,3,16.46,clear sky
526,Teahupoo,PF,-17.8333,-149.2667,80.56,73,40,16.31,light rain
527,Caldwell,US,43.6629,-116.6874,42.62,54,0,6.91,clear sky
528,Yelanskiy,RU,56.8419,62.5014,21.0,94,100,5.86,overcast clouds
529,Nelson Bay,AU,-32.7167,152.15,77.95,82,100,1.99,overcast clouds
530,Liverpool,GB,53.4106,-2.9779,45.77,85,0,8.05,clear sky
531,Lakes Entrance,AU,-37.8811,147.981,65.16,65,26,4.32,scattered clouds
532,Yomou,GN,7.5603,-9.2653,72.66,91,98,4.76,overcast clouds
533,Kasongo-Lunda,CD,-6.4667,16.8167,70.34,97,99,0.94,light rain
534,Zheleznodorozhnyy,RU,55.7503,38.0042,34.32,99,100,12.21,light snow
535,Tuatapere,NZ,-46.1333,167.6833,58.82,94,96,9.46,overcast clouds
536,Lesnoy,RU,57.6198,63.0784,21.09,94,100,6.73,overcast clouds
537,Dongsheng,CN,39.8161,109.9776,5.59,74,1,3.18,clear sky
538,Dali,CN,25.7,100.1833,38.86,98,100,1.07,overcast clouds
539,Udachnyy,RU,66.4167,112.4,-9.2,99,97,4.63,overcast clouds
540,Kasempa,ZM,-13.4584,25.8338,62.69,98,69,4.5,broken clouds
541,Ekpoma,NG,6.7421,6.139,74.61,83,100,4.45,overcast clouds
542,Olafsvik,IS,64.8945,-23.7142,38.5,78,100,28.39,light rain
543,Belaya Gora,RU,68.5333,146.4167,-47.94,100,60,4.05,broken clouds
544,Shache,CN,38.4167,77.2406,28.96,44,20,3.24,few clouds
545,Zhezkazgan,KZ,47.8043,67.7144,17.17,90,100,6.49,overcast clouds
546,Potot,PH,12.2035,123.4319,77.67,86,99,14.74,overcast clouds
547,Naze,JP,28.3667,129.4833,50.92,62,100,11.21,overcast clouds
548,Obo,CF,5.3998,26.4869,71.65,19,100,4.14,overcast clouds
549,Alice Springs,AU,-23.7,133.8833,71.15,46,0,0.0,clear sky
550,Sitka,US,57.0531,-135.33,35.49,38,40,6.91,scattered clouds
551,Ornskoldsvik,SE,63.2909,18.7153,17.42,92,100,10.36,overcast clouds
552,Karpathos,GR,35.507,27.2132,60.76,88,25,13.8,scattered clouds
553,Ayan,RU,56.45,138.1667,-7.06,80,8,9.55,clear sky
554,Lixourion,GR,38.2019,20.4314,55.22,87,25,9.84,scattered clouds
555,Manicore,BR,-5.8092,-61.3003,75.22,96,83,1.92,moderate rain
556,Kruisfontein,ZA,-34.0033,24.7314,59.88,89,59,4.94,broken clouds
557,Majene,ID,-3.5403,118.9707,77.07,75,100,8.84,light rain
558,Carutapera,BR,-1.195,-46.02,77.11,91,96,7.14,heavy intensity rain
559,Putina,PE,-15.4667,-69.4333,50.74,68,95,10.2,overcast clouds
560,Bairiki,KI,1.3292,172.9752,86.0,70,40,11.5,scattered clouds
561,Nizhniy Baskunchak,RU,48.2198,46.8311,34.66,91,19,5.19,few clouds
562,Chicama,PE,-7.8447,-79.1469,68.54,67,54,7.74,broken clouds
563,Baykit,RU,61.67,96.37,1.11,100,100,2.19,overcast clouds
564,Sibolga,ID,1.7427,98.7792,75.85,82,85,3.58,overcast clouds
565,Praya,CV,14.9215,-23.5087,70.34,78,75,17.27,broken clouds
566,Wuwei,CN,37.9281,102.6414,17.19,59,7,4.41,clear sky
567,Kushiro,JP,42.975,144.3747,25.75,58,75,6.91,broken clouds
568,Dawlatabad,AF,36.4141,64.9053,48.85,86,100,6.53,light rain
569,Taupo,NZ,-38.6833,176.0833,67.46,63,89,1.1,overcast clouds
570,Derzhavinsk,KZ,51.1,66.3167,23.94,96,100,8.84,overcast clouds
571,Lichuan,CN,30.3,108.85,28.89,97,100,2.26,light snow
572,Engen,DE,47.85,8.7667,40.48,90,86,8.34,overcast clouds
573,Zhashkiv,UA,49.2454,30.1102,41.34,68,100,5.86,overcast clouds
574,Aguas Formosas,BR,-17.0822,-40.9358,75.0,79,33,4.05,scattered clouds
575,Jiwani,PK,25.05,61.7417,73.4,66,0,22.19,clear sky
576,Acapulco,MX,16.8634,-99.8901,84.85,59,3,12.28,clear sky
577,Maceio,BR,-9.6658,-35.7353,80.04,78,20,5.75,few clouds
578,Gravdal,NO,68.1214,13.5031,25.72,68,53,1.81,broken clouds
579,Sawakin,SD,19.1059,37.3321,69.64,58,71,8.1,broken clouds
580,Sangmelima,CM,2.9333,11.9833,74.07,60,96,2.77,overcast clouds
581,Peniche,PT,39.3558,-9.3811,57.09,92,24,14.14,few clouds
582,Sapele,NG,5.8941,5.6767,80.87,82,100,4.5,overcast clouds
583,Sola,VU,-13.8833,167.55,82.78,75,78,13.82,broken clouds
584,Sao Paulo De Olivenca,BR,-3.3783,-68.8725,75.25,96,82,3.33,moderate rain
585,San Patricio,US,28.017,-97.5169,90.01,64,8,21.41,clear sky
586,Hisai,JP,34.6667,136.4667,37.2,58,4,13.49,clear sky
587,Altamira,BR,-3.2033,-52.2064,74.34,96,95,2.82,overcast clouds
588,Ubala,CO,4.7478,-72.5369,90.59,28,96,8.43,overcast clouds
589,Riyadh,SA,24.6877,46.7219,55.54,30,0,7.4,clear sky
590,Puri,IN,19.8,85.85,70.32,80,75,5.19,broken clouds
591,Mehamn,NO,71.0357,27.8492,17.51,75,100,1.99,overcast clouds
592,Rocha,UY,-34.4833,-54.3333,68.72,79,82,9.31,broken clouds
593,Itapirapua,BR,-15.8233,-50.6133,72.28,92,94,2.06,overcast clouds
594,La Ronge,CA,55.1001,-105.2842,-7.35,37,0,4.61,clear sky
595,Valleyview,CA,55.0667,-117.2859,-3.96,65,100,8.05,overcast clouds
596,Biltine,TD,14.5333,20.9167,69.06,14,29,12.03,scattered clouds
597,Orocue,CO,4.7912,-71.3354,91.51,29,85,7.56,overcast clouds
598,Werda,BW,-25.2667,23.2833,76.96,27,24,9.44,few clouds
599,Ojinaga,MX,29.5667,-104.4167,85.41,28,0,26.46,clear sky
600,Keuruu,FI,62.2667,24.7,24.98,91,100,12.86,snow
601,Ardatov,RU,55.2421,43.097,30.0,94,100,13.24,light snow
602,Pacifica,US,37.6138,-122.4869,60.24,64,20,25.32,few clouds
603,Bobcaygeon,CA,44.5462,-78.542,36.68,92,100,10.11,overcast clouds
604,Tomatlan,MX,19.9333,-105.25,92.08,22,0,13.56,clear sky
605,Campo Verde,BR,-20.4167,-54.0667,85.21,84,39,4.25,scattered clouds
606,Christchurch,NZ,-43.5333,172.6333,78.33,53,9,4.61,clear sky
607,Iracoubo,GF,5.4802,-53.2011,77.4,89,99,9.51,overcast clouds
608,Gambela,ET,8.25,34.5833,77.56,29,92,2.51,overcast clouds
609,Flinders,AU,-34.5833,150.8552,71.8,86,100,8.99,light rain
610,Mazagao,BR,-0.115,-51.2894,80.65,92,74,4.79,broken clouds
611,Yaan,NG,7.3833,8.5667,84.18,13,60,5.77,broken clouds
612,Gazanjyk,TM,39.2446,55.5154,48.02,80,75,8.95,broken clouds
613,Inhambane,MZ,-23.865,35.3833,75.4,80,22,7.96,few clouds
614,Nortelandia,BR,-14.4547,-56.8028,73.11,94,45,3.74,scattered clouds
615,Novyy Urgal,RU,51.0736,132.5642,-21.64,100,78,1.45,broken clouds
616,Beloha,MG,-25.1667,45.05,74.59,85,0,10.65,clear sky
617,Tenenkou,ML,14.4572,-4.9169,79.59,9,69,9.57,broken clouds
618,Cornelio Procopio,BR,-23.1811,-50.6467,88.43,91,19,2.04,few clouds
619,Manggar,ID,-2.8833,108.2667,78.26,84,99,8.1,overcast clouds
620,Pistsovo,RU,57.179,40.5298,31.3,97,100,12.5,light snow
621,Leshukonskoye,RU,64.8989,45.7622,8.67,99,97,3.2,overcast clouds
622,Taunton,GB,51.0211,-3.1047,49.48,86,34,4.0,scattered clouds
623,Ushtobe,KZ,45.2514,77.9838,21.61,78,4,9.19,clear sky
624,Atar,MR,20.5169,-13.0499,75.07,18,100,5.93,overcast clouds
625,Jumla,NP,29.2747,82.1838,32.04,35,0,4.83,clear sky
626,Sao Luiz Gonzaga,BR,-28.4083,-54.9608,82.45,42,75,5.77,broken clouds
627,Muli,MV,2.9167,73.5667,81.27,67,1,7.72,clear sky
628,Xuddur,SO,4.1213,43.8894,72.73,57,37,14.14,scattered clouds
629,Banda Aceh,ID,5.5577,95.3222,77.9,86,57,8.95,broken clouds
630,Bitkine,TD,11.9801,18.2138,73.18,15,2,7.02,clear sky
631,Miri,MY,4.4148,114.0089,73.54,100,20,0.0,few clouds
632,Mafinga,TZ,-7.25,35.0667,65.05,96,100,3.22,overcast clouds
633,Maxixe,MZ,-23.8597,35.3472,74.12,83,16,6.73,few clouds
634,Wilmington,US,34.2257,-77.9447,66.11,71,75,11.5,broken clouds
635,Arawa,PG,-6.2132,155.5367,86.29,66,89,1.54,overcast clouds
636,Los Llanos De Aridane,ES,28.6585,-17.9182,56.95,71,40,7.0,scattered clouds
637,Elizabeth City,US,36.2946,-76.2511,63.01,75,75,9.22,broken clouds
638,Sainte-Anne-Des-Monts,CA,49.124,-66.4924,10.27,61,80,17.27,broken clouds
639,Matagami,CA,49.7502,-77.6328,-9.29,59,0,4.61,clear sky
640,Terra Santa,BR,-2.1042,-56.4869,79.43,79,44,1.52,scattered clouds
641,La Baule-Escoublac,FR,47.2922,-2.364,50.88,89,100,8.05,overcast clouds
642,Talakan,RU,50.3167,130.3667,-15.11,99,96,3.74,overcast clouds
643,Rio Brilhante,BR,-21.8019,-54.5464,78.03,73,45,5.1,scattered clouds
644,Kondopoga,RU,62.2057,34.2614,24.48,96,100,6.67,overcast clouds
645,Sinnamary,GF,5.3833,-52.95,77.16,90,99,9.42,overcast clouds
646,Suhbaatar,MN,50.2314,106.2078,-16.31,100,87,1.86,overcast clouds
647,Mach,PK,29.8637,67.3298,61.92,47,62,13.4,broken clouds
648,Mabaruma,GY,8.2,-59.7833,72.27,98,33,3.78,scattered clouds
649,Sinazongwe,ZM,-17.2614,27.4618,75.24,73,7,6.11,clear sky
650,Buribay,RU,51.9617,58.1592,26.98,93,98,6.46,overcast clouds
651,Bac Lieu,VN,9.285,105.7244,78.13,79,60,14.41,broken clouds
652,Kaeo,NZ,-35.1,173.7833,78.33,68,42,9.98,scattered clouds
653,Finnsnes,NO,69.2296,17.9811,12.16,94,96,3.38,overcast clouds
654,La Victoria,VE,10.2184,-67.3302,78.89,72,77,5.14,broken clouds
655,Salamiyah,SY,35.0113,37.0532,50.05,91,94,8.34,overcast clouds
656,Kysyl-Syr,RU,63.8986,122.7617,-2.63,99,100,3.2,overcast clouds
657,San Matias,BO,-16.3667,-58.4,76.87,91,40,4.72,heavy intensity rain
658,Inirida,CO,3.8653,-67.9239,82.69,64,95,2.53,overcast clouds
659,Qaqortoq,GL,60.7167,-46.0333,-4.94,86,14,5.12,few clouds
660,Chanute,US,37.6792,-95.4572,71.28,67,81,21.61,broken clouds
661,Bacolod,PH,10.6667,122.95,77.52,81,100,7.31,overcast clouds
662,Harper,LR,4.375,-7.7169,78.33,87,99,6.15,light rain
663,Bud,US,39.447,-86.1758,62.69,83,100,14.79,overcast clouds
664,Tshikapa,CD,-6.4167,20.8,73.09,83,100,0.58,overcast clouds
665,Zelenogorskiy,RU,55.0333,87.0,19.92,99,86,4.88,overcast clouds
666,Nosy Varika,MG,-20.5833,48.5333,72.64,95,100,20.18,heavy intensity rain
667,Tocopilla,CL,-22.092,-70.1979,70.36,80,29,7.78,scattered clouds
668,Tupelo,US,34.2576,-88.7034,55.69,82,100,15.01,mist
669,Dunhua,CN,43.3725,128.2425,-4.49,90,32,7.7,scattered clouds
670,Chapais,CA,49.7834,-74.8492,-9.62,93,95,2.39,overcast clouds
671,Antequera,ES,37.0194,-4.5612,53.19,57,0,3.44,clear sky
672,Pak Phanang,TH,8.3511,100.202,79.2,80,74,6.64,broken clouds
673,Moba,CN,33.2288,105.0179,25.12,76,100,2.28,overcast clouds
674,Linqiong,CN,30.4159,103.4609,40.82,90,100,3.11,overcast clouds
675,Gunjur,GM,13.2019,-16.7339,71.67,73,64,10.36,broken clouds
676,Kargil,IN,34.5667,76.1,3.34,83,100,1.77,overcast clouds
677,Tabou,CI,4.423,-7.3528,78.35,89,93,6.08,light rain
678,Rochegda,RU,62.8,43.25,3.7,100,92,1.25,overcast clouds
679,Monrovia,LR,6.3005,-10.7969,77.92,87,100,3.76,light rain
680,Manzhouli,CN,49.6,117.4333,-13.49,98,23,6.35,few clouds
681,Emba,KZ,48.8264,58.1442,30.47,94,100,7.65,overcast clouds
682,Clyde River,CA,70.4692,-68.5914,-10.97,77,100,21.85,overcast clouds
683,Batemans Bay,AU,-35.7167,150.1833,68.2,92,100,5.41,overcast clouds
684,Coihueco,CL,-36.6167,-71.8333,79.54,34,75,6.91,broken clouds
685,Itaueira,BR,-7.6033,-43.0256,78.98,69,83,2.71,broken clouds
686,Marsa Matruh,EG,31.3525,27.2453,55.6,76,0,0.0,clear sky
687,Mato Verde,BR,-15.3972,-42.8664,72.14,84,46,4.61,scattered clouds
688,Mount Isa,AU,-20.7333,139.5,82.17,26,0,8.05,clear sky
689,Sunbury,AU,-37.5833,144.7333,63.93,61,20,12.66,few clouds
690,Waingapu,ID,-9.6567,120.2641,75.72,87,100,6.26,overcast clouds
691,Antibes,FR,43.5624,7.1278,54.88,35,0,23.02,clear sky
692,Pitimbu,BR,-7.4706,-34.8086,82.99,70,32,10.56,scattered clouds
693,Bijni,IN,26.4959,90.703,55.65,59,0,6.24,clear sky
694,Valdez,EC,1.2492,-78.9831,79.7,80,41,5.66,light rain
695,Emilio Carranza,MX,19.9711,-96.6114,79.39,64,0,17.45,clear sky
696,Morgan City,US,29.6994,-91.2068,78.8,78,75,17.27,broken clouds
697,Baracoa,CU,20.3467,-74.4958,75.67,79,43,10.6,scattered clouds
698,Rio Gallegos,AR,-51.6226,-69.2181,68.94,32,3,6.02,clear sky
699,Oranjestad,AW,12.524,-70.027,80.55,74,20,17.27,few clouds
700,Havelock,US,34.8791,-76.9013,64.38,87,75,10.36,broken clouds
701,Vasterhaninge,SE,59.1167,18.1,30.83,93,100,26.55,overcast clouds
702,Nipawin,CA,53.3668,-104.0009,-12.96,64,0,8.05,clear sky
